City_ID,City,Country,Date,Lat,Lng,Max Temp,Humidity,Cloudiness,Wind Speed,Current Description,Rain inches(last 3hrs),Snow inches(last 3hrs)
0,Olgod,DK,1/4/2020 21:21,55.81,8.63,36,80,0,4.7,clear sky,0,0
1,Vostok,RU,1/4/2020 21:21,46.45,135.83,-7.71,97,100,4.59,light snow,0,0
2,Faanui,PF,1/4/2020 21:21,-16.48,-151.75,81.45,77,100,12.1,overcast clouds,0,0
3,Rikitea,PF,1/4/2020 21:21,-23.12,-134.97,77.2,77,67,16.6,broken clouds,0,0
4,Cape Town,ZA,1/4/2020 21:20,-33.93,18.42,68,72,20,4.7,few clouds,0,0
5,Sampit,ID,1/4/2020 21:21,-2.54,112.95,75.43,97,100,1.16,overcast clouds,0,0
6,Biltine,TD,1/4/2020 21:21,14.53,20.93,62.91,20,0,17.56,clear sky,0,0
7,Iqaluit,CA,1/4/2020 21:19,63.75,-68.52,-18,68,40,32.21,scattered clouds,0,0
8,Busselton,AU,1/4/2020 21:16,-33.64,115.35,57,43,0,10.63,clear sky,0,0
9,Adrar,DZ,1/4/2020 21:21,27.87,-0.29,50,29,85,12.75,overcast clouds,0,0
10,Lebu,ET,1/4/2020 21:21,8.96,38.73,59,58,20,4.7,few clouds,0,0
11,Quelimane,MZ,1/4/2020 21:21,-17.88,36.89,80.51,85,88,6.58,overcast clouds,0,0
12,Xining,CN,1/4/2020 21:21,36.62,101.77,18.09,89,99,2.35,overcast clouds,0,0
13,Maniitsoq,GL,1/4/2020 21:18,65.42,-52.9,21.63,58,100,4.21,overcast clouds,0,0
14,Port Alfred,ZA,1/4/2020 21:21,-33.59,26.89,72,98,100,1.99,overcast clouds,0,0
15,Mbaiki,CF,1/4/2020 21:21,3.87,17.99,72.82,30,11,3,few clouds,0,0
16,Ilulissat,GL,1/4/2020 21:21,69.22,-51.1,10.4,66,100,13.87,overcast clouds,0,0
17,Salinas,US,1/4/2020 21:21,36.67,-121.66,63,63,1,8.05,clear sky,0,0
18,Shache,CN,1/4/2020 21:21,38.42,77.24,17.64,76,0,2.66,clear sky,0,0
19,Qaanaaq,GL,1/4/2020 21:21,77.48,-69.36,-40.9,61,0,5.1,clear sky,0,0
20,Punta Arenas,CL,1/4/2020 21:21,-53.16,-70.91,55.4,50,75,17.22,broken clouds,0,0
21,Butaritari,KI,1/4/2020 21:21,3.07,172.79,84.61,78,38,15.12,scattered clouds,0,0
22,Port Macquarie,AU,1/4/2020 21:17,-31.43,152.91,78.01,78,90,8.05,overcast clouds,0,0
23,Atuona,PF,1/4/2020 21:17,-9.8,-139.03,81.55,68,5,9.24,clear sky,0,0
24,Grand Haven,US,1/4/2020 21:19,43.06,-86.23,32,68,90,11.41,overcast clouds,0,0
25,Hobart,AU,1/4/2020 21:20,-42.88,147.33,57,43,75,5.82,broken clouds,0,0
26,Comodoro Rivadavia,AR,1/4/2020 21:18,-45.87,-67.48,66.2,42,40,18.34,scattered clouds,0,0
27,Richards Bay,ZA,1/4/2020 21:21,-28.77,32.06,79.07,78,95,25.43,overcast clouds,0,0
28,Vrangel,RU,1/4/2020 21:21,42.73,133.08,24.01,66,0,21.27,clear sky,0,0
29,Narsaq,GL,1/4/2020 21:21,60.91,-46.05,26.6,86,100,3.36,light snow,0,0
30,Khatanga,RU,1/4/2020 21:21,71.98,102.47,-18.11,85,0,8.79,clear sky,0,0
31,Kutna Hora,CZ,1/4/2020 21:21,49.95,15.27,39.2,80,75,26.4,broken clouds,0,0
32,Tasiilaq,GL,1/4/2020 21:21,65.61,-37.64,26.6,92,100,3.36,light snow,0,0
33,Kununurra,AU,1/4/2020 21:21,-15.77,128.74,80.6,88,77,1.59,broken clouds,0,0
34,Bluff,AU,1/4/2020 21:21,-23.58,149.07,72.23,72,59,8.48,broken clouds,0,0
35,Katsuura,JP,1/4/2020 21:21,33.93,134.5,46.4,74,75,18.34,broken clouds,0,0
36,Loralai,PK,1/4/2020 21:21,30.37,68.6,42.01,64,79,1.03,broken clouds,0,0
37,Ulaangom,MN,1/4/2020 21:21,49.98,92.07,-10.5,90,99,2.1,overcast clouds,0,0
38,Buchanan,LR,1/4/2020 21:21,5.88,-10.05,73.4,88,20,3.51,mist,0,0
39,Bam,IR,1/4/2020 21:21,29.11,58.36,55.56,52,70,2.8,broken clouds,0,0
40,Albany,US,1/4/2020 21:21,42.65,-73.75,42.01,86,90,10.29,light intensity drizzle,0,0
41,Esperance,AU,1/4/2020 21:21,-33.86,121.89,53.6,76,0,13.87,clear sky,0,0
42,Ribeira Grande,PT,1/4/2020 21:21,38.52,-28.7,64.4,88,75,13.87,broken clouds,0,0
43,Hasaki,JP,1/4/2020 21:21,35.73,140.83,32,58,20,5.82,fog,0,0
44,Tura,RU,1/4/2020 21:21,64.27,100.22,1.31,94,100,6.6,light snow,0,0
45,Lata,IN,1/4/2020 21:21,30.78,78.62,-0.81,62,39,9.95,scattered clouds,0,0
46,College,US,1/4/2020 21:21,64.86,-147.8,-29.2,73,71,3.24,broken clouds,0,0
47,Ushuaia,AR,1/4/2020 21:21,-54.81,-68.31,59,38,40,5.82,scattered clouds,0,0
48,Zhangye,CN,1/4/2020 21:21,38.94,100.46,24.4,44,100,3.4,overcast clouds,0,0
49,Mocuba,MZ,1/4/2020 21:21,-16.84,36.99,75.4,96,95,4.29,overcast clouds,0,0
50,Avarua,CK,1/4/2020 21:19,-21.21,-159.78,82.4,83,1,5.82,clear sky,0,0
51,Ponta Do Sol,BR,1/4/2020 21:21,-20.63,-46,72.32,89,100,2.01,moderate rain,10.63,0
52,Jamestown,AU,1/4/2020 21:21,-33.21,138.6,55.47,52,99,15.46,overcast clouds,0,0
53,Mataura,NZ,1/4/2020 21:21,-46.19,168.86,55,83,98,14,overcast clouds,0,0
54,Bredasdorp,ZA,1/4/2020 21:21,-34.53,20.04,66.2,68,25,10.29,scattered clouds,0,0
55,Fort Nelson,CA,1/4/2020 21:21,58.81,-122.69,-5.8,70,75,8.05,broken clouds,0,0
56,Faya,SA,1/4/2020 21:21,18.39,42.45,60.8,87,20,9.17,few clouds,0,0
57,Shuiji,CN,1/4/2020 21:21,27.42,118.34,54.16,94,71,1.97,broken clouds,0,0
58,Te Anau,NZ,1/4/2020 21:21,-45.41,167.72,47.88,82,100,8.14,moderate rain,5.81,0
59,Bitung,ID,1/4/2020 21:21,1.44,125.19,73.4,100,40,1.16,scattered clouds,0,0
60,Krasnoobsk,RU,1/4/2020 21:21,54.92,82.99,26.6,79,90,17.9,overcast clouds,0,0
61,Selikhino,RU,1/4/2020 21:21,50.37,137.51,-12.77,99,100,5.01,overcast clouds,0,0
62,Ravar,IR,1/4/2020 21:21,31.27,56.81,44.65,94,100,7.34,overcast clouds,0,0
63,Saint-Pierre,FR,1/4/2020 21:21,48.95,4.24,44.6,87,90,6.93,overcast clouds,0,0
64,Severo-Kurilsk,RU,1/4/2020 21:21,50.68,156.12,14.34,73,100,3.11,overcast clouds,0,0
65,Barrow,AR,1/4/2020 21:21,-38.31,-60.23,77.27,55,75,18.05,broken clouds,0,0
66,Hermanus,ZA,1/4/2020 21:20,-34.42,19.24,64.99,89,5,14.25,clear sky,0,0
67,Kapaa,US,1/4/2020 21:21,22.08,-159.32,78.8,78,90,23.04,overcast clouds,0,0
68,Saint-Philippe,CA,1/4/2020 21:21,45.36,-73.48,33.01,86,90,9.17,light snow,0,0
69,Gweta,BW,1/4/2020 21:21,-20.21,25.26,76.26,65,100,11.92,overcast clouds,0,0
70,Ambatondrazaka,MG,1/4/2020 21:21,-17.82,48.43,64.67,96,100,2.98,overcast clouds,0,0
71,San Andres,PH,1/4/2020 21:21,13.32,122.68,74.68,82,90,13.67,light rain,0.13,0
72,Grand Gaube,MU,1/4/2020 21:21,-20.01,57.66,78.01,94,75,12.03,light intensity shower rain,0,0
73,Namatanai,PG,1/4/2020 21:21,-3.66,152.44,77.4,90,100,3.02,heavy intensity rain,15.19,0
74,Ketchikan,US,1/4/2020 21:18,55.34,-131.65,33.8,98,90,11.41,moderate rain,0,0
75,Tchollire,CM,1/4/2020 21:21,8.4,14.17,68.05,24,0,1.28,clear sky,0,0
76,Salta,AR,1/4/2020 21:21,-24.79,-65.41,86,83,40,5.82,shower rain,0,0
77,Coquimbo,CL,1/4/2020 21:21,-29.95,-71.34,64.4,77,40,11.41,scattered clouds,0,0
78,Bathsheba,BB,1/4/2020 21:21,13.22,-59.52,80.6,69,75,13.87,shower rain,0,0
79,Senanga,ZM,1/4/2020 21:21,-16.1,23.3,68.11,92,100,5.88,light rain,0.88,0
80,Rehoboth,NA,1/4/2020 21:21,-23.31,17.08,74.1,28,63,13.82,broken clouds,0,0
81,Lumphat,KH,1/4/2020 21:21,13.5,106.97,66.99,79,39,7.87,scattered clouds,0,0
82,Ko Samui,TH,1/4/2020 21:21,9.54,99.94,80.58,75,49,10.85,scattered clouds,0,0
83,Raudeberg,NO,1/4/2020 21:21,61.99,5.14,37.99,80,98,9.17,overcast clouds,0,0
84,Saskylakh,RU,1/4/2020 21:21,71.97,114.09,-21.41,95,62,6.04,broken clouds,0,0
85,Deputatskiy,RU,1/4/2020 21:21,69.3,139.9,-8.72,86,100,2.1,overcast clouds,0,0
86,Kaitangata,NZ,1/4/2020 21:21,-46.28,169.85,49.23,86,100,7.96,light rain,2.5,0
87,Kinshasa,CD,1/4/2020 21:17,-4.32,15.31,78.8,83,40,4.7,scattered clouds,0,0
88,Longyearbyen,NO,1/4/2020 21:21,78.22,15.63,6.8,60,20,5.82,few clouds,0,0
89,Mayo,CA,1/4/2020 21:21,63.59,-135.9,-9.4,76,90,3.36,light snow,0,0
90,Nanortalik,GL,1/4/2020 21:21,60.14,-45.24,30.34,89,100,15.46,light snow,0,0
91,Lagoa,PT,1/4/2020 21:21,37.14,-8.45,53.01,81,0,5.82,clear sky,0,0
92,Bria,CF,1/4/2020 21:21,6.54,21.99,73.2,35,0,5.14,clear sky,0,0
93,Rawson,AR,1/4/2020 21:21,-43.3,-65.11,59.2,76,0,16.04,clear sky,0,0
94,Georgetown,GY,1/4/2020 21:17,6.8,-58.16,84.2,70,20,9.17,few clouds,0,0
95,Nikolskoye,RU,1/4/2020 21:21,59.7,30.79,33.8,80,90,15.66,overcast clouds,0,0
96,Westport,US,1/4/2020 21:16,41.14,-73.36,51.01,93,90,3.36,fog,0,0
97,Pilar,AR,1/4/2020 21:21,-34.46,-58.91,84.99,42,59,9.17,broken clouds,0,0
98,Pecos,US,1/4/2020 21:21,31.42,-103.49,64.4,18,1,14.99,clear sky,0,0
99,Palmer,AU,1/4/2020 21:21,-34.85,139.16,57.2,82,90,4.7,light rain,0,0
100,Zavetnoye,RU,1/4/2020 21:21,47.12,43.89,30.2,95,2,8.81,clear sky,0,0
101,Aklavik,CA,1/4/2020 21:21,68.22,-135.01,-22,74,40,10.29,scattered clouds,0,0
102,Ambilobe,MG,1/4/2020 21:21,-13.19,49.05,79.81,82,73,6.04,broken clouds,0,0
103,Boa Vista,BR,1/4/2020 21:21,2.82,-60.67,91.4,38,40,8.05,scattered clouds,0,0
104,Cidreira,BR,1/4/2020 21:21,-30.17,-50.22,73.17,80,23,17.76,light rain,0.31,0
105,Dingli,IN,1/4/2020 21:21,28.39,75.51,54.95,48,18,5.84,few clouds,0,0
106,Nantucket,US,1/4/2020 21:19,41.28,-70.1,46.4,87,90,4.7,light rain,0,0
107,Auki,NG,1/4/2020 21:21,12.18,6.51,64.15,23,51,14.05,broken clouds,0,0
108,Margate,AU,1/4/2020 21:21,-43.03,147.26,57,43,75,5.82,broken clouds,0,0
109,Samarai,PG,1/4/2020 21:21,-10.62,150.67,79.09,81,26,1.25,scattered clouds,0,0
110,Mae Sai,MM,1/4/2020 21:21,20.44,99.89,62.6,100,20,2.24,few clouds,0,0
111,East London,ZA,1/4/2020 21:21,-33.02,27.91,76.12,93,48,11.74,scattered clouds,0,0
112,Shimoda,JP,1/4/2020 21:21,34.7,138.93,36,90,75,13.06,broken clouds,0,0
113,Pevek,RU,1/4/2020 21:21,69.7,170.27,-5.69,64,0,2.66,clear sky,0,0
114,Kavieng,PG,1/4/2020 21:21,-2.57,150.8,83.77,77,100,12.12,moderate rain,4.88,0
115,Fairbanks,US,1/4/2020 21:21,64.84,-147.72,-29.2,73,89,3.29,overcast clouds,0,0
116,Chihuahua,MX,1/4/2020 21:17,28.66,-106.08,57.2,30,5,9.17,clear sky,0,0
117,Monrovia,LR,1/4/2020 21:21,6.33,-10.8,73.4,88,20,7.07,mist,0,0
118,Cabedelo,BR,1/4/2020 21:21,-6.97,-34.84,80.6,74,20,8.05,few clouds,0,0
119,Loandjili,CG,1/4/2020 21:21,-4.77,11.87,80.6,94,40,6.93,scattered clouds,0,0
120,San Ramon,NI,1/4/2020 21:21,12.92,-85.84,77,50,40,9.17,scattered clouds,0,0
121,Aztec,US,1/4/2020 21:21,36.82,-107.99,41,44,1,3.36,clear sky,0,0
122,Olinda,AU,1/4/2020 21:16,-37.84,145.39,57.2,76,75,13.87,light rain,0,0
123,Airai,TL,1/4/2020 21:21,-8.93,125.41,69.01,80,94,5.53,overcast clouds,0,0
124,Upernavik,GL,1/4/2020 21:21,72.79,-56.15,-35.36,97,64,12.21,broken clouds,0,0
125,New Norfolk,AU,1/4/2020 21:21,-42.78,147.06,57,43,75,5.82,broken clouds,0,0
126,Yellowknife,CA,1/4/2020 21:21,62.45,-114.38,3.2,84,90,16.11,light snow,0,0
127,Balikpapan,ID,1/4/2020 21:21,-1.24,116.86,73.58,97,100,3.74,overcast clouds,0,0
128,Srednekolymsk,RU,1/4/2020 21:21,67.46,153.71,-0.27,55,88,2.26,overcast clouds,0,0
129,Kavaratti,IN,1/4/2020 21:19,10.57,72.64,80.37,69,66,8.88,broken clouds,0,0
130,Moron,HT,1/4/2020 21:21,18.56,-74.26,80.19,69,7,3.38,clear sky,0,0
131,Riyadh,SA,1/4/2020 21:21,24.63,46.72,66.2,52,75,3.36,thunderstorm with rain,0,0
132,Salalah,OM,1/4/2020 21:21,17.01,54.1,77,73,40,10.29,scattered clouds,0,0
133,Santa Isabel Do Rio Negro,BR,1/4/2020 21:21,-0.41,-65.02,91.99,47,99,1.5,overcast clouds,0,0
134,Pakokku,MM,1/4/2020 21:21,21.33,95.09,63.54,93,9,5.44,light rain,0.25,0
135,Puerto Ayora,EC,1/4/2020 21:21,-0.74,-90.35,82.4,65,75,20.8,broken clouds,0,0
136,San Jose,HN,1/4/2020 21:19,14.25,-87.96,77.9,52,100,11.21,overcast clouds,0,0
137,Sylvan Lake,CA,1/4/2020 21:18,52.31,-114.09,32,77,75,11.41,broken clouds,0,0
138,Quatre Cocos,MU,1/4/2020 21:17,-20.21,57.76,78.01,94,75,15.75,light intensity shower rain,0,0
139,Hithadhoo,MV,1/4/2020 21:16,-0.6,73.08,83.03,68,99,4.38,overcast clouds,0,0
140,Tiarei,PF,1/4/2020 21:21,-17.53,-149.33,86,70,40,11.41,scattered clouds,0,0
141,Fortuna,US,1/4/2020 21:21,40.6,-124.16,54,76,40,9.17,scattered clouds,0,0
142,Tiksi,RU,1/4/2020 21:21,71.64,128.87,-16.85,86,77,7.58,broken clouds,0,0
143,Arieseni,RO,1/4/2020 21:21,46.48,22.77,23.97,92,100,7.25,light snow,0,0
144,Kurilsk,RU,1/4/2020 21:21,45.23,147.88,18.07,82,100,15.5,light snow,0,0
145,Chokurdakh,RU,1/4/2020 21:17,70.62,147.9,-14.71,98,73,0.81,broken clouds,0,0
146,Orje,NO,1/4/2020 21:21,59.48,11.66,35.6,47,12,6.93,few clouds,0,0
147,Ancud,CL,1/4/2020 21:21,-41.87,-73.83,60.8,59,0,8.05,clear sky,0,0
148,Stabat,ID,1/4/2020 21:21,3.76,98.46,75.2,100,40,3.36,mist,0,0
149,Maxixe,MZ,1/4/2020 21:21,-23.86,35.35,78.93,80,20,13.56,few clouds,0,0
150,Castro,CL,1/4/2020 21:21,-42.48,-73.76,60.8,59,0,8.05,clear sky,0,0
151,San Quintin,PH,1/4/2020 21:21,17.54,120.52,68.83,79,65,4.88,broken clouds,0,0
152,Sola,TZ,1/4/2020 21:21,-3.17,33.8,65.82,81,1,5.57,clear sky,0,0
153,Cuiluan,CN,1/4/2020 21:21,47.72,128.65,-8.23,99,67,5.77,broken clouds,0,0
154,Tangermunde,DE,1/4/2020 21:21,52.54,11.98,37,84,0,1.01,clear sky,0,0
155,Taltal,CL,1/4/2020 21:21,-25.41,-70.49,64.49,71,0,5.93,clear sky,0,0
156,Ratnagiri,IN,1/4/2020 21:21,16.98,73.3,61.45,92,0,1.23,clear sky,0,0
157,Acapulco,MX,1/4/2020 21:18,16.86,-99.88,86,66,40,5.82,scattered clouds,0,0
158,Cheremukhovo,RU,1/4/2020 21:21,56.23,46.23,28.27,91,100,13.69,overcast clouds,0,0
159,Siuna,NI,1/4/2020 21:21,13.73,-84.78,86.38,49,9,5.53,clear sky,0,0
160,Bilibino,RU,1/4/2020 21:21,68.06,166.44,-4.83,48,0,1.52,clear sky,0,0
161,Vanimo,PG,1/4/2020 21:21,-2.67,141.3,82.44,81,100,14.07,light rain,2.94,0
162,Saint Anthony,US,1/4/2020 21:21,43.97,-111.68,35.6,63,90,17.22,overcast clouds,0,0
163,Suksun,RU,1/4/2020 21:21,57.15,57.4,27.16,92,100,11.25,light snow,0,0
164,Moncao,PT,1/4/2020 21:21,42.08,-8.48,51.01,93,0,5.82,clear sky,0,0
165,Roros,NO,1/4/2020 21:21,62.57,11.38,26.6,86,54,9.17,light snow,0,0
166,Leningradskiy,RU,1/4/2020 21:21,69.38,178.42,-9,62,34,1.07,scattered clouds,0,0
167,Puerto Del Rosario,ES,1/4/2020 21:21,28.5,-13.86,64.4,72,20,16.11,few clouds,0,0
168,Flinders,AU,1/4/2020 21:21,-34.58,150.85,71.01,77,90,9.17,overcast clouds,0,0
169,Antalaha,MG,1/4/2020 21:21,-14.9,50.28,79,84,100,3,overcast clouds,0,0
170,Dikson,RU,1/4/2020 21:21,73.51,80.55,0.25,82,100,22.15,overcast clouds,0,0
171,Itarema,BR,1/4/2020 21:21,-2.92,-39.92,80.62,74,62,7.2,broken clouds,0,0
172,Sorland,NO,1/4/2020 21:21,67.67,12.69,33.22,60,95,19.6,light snow,0,0
173,Avera,US,1/4/2020 21:21,33.19,-82.53,64.4,41,1,17.22,clear sky,0,0
174,Axim,GH,1/4/2020 21:21,4.87,-2.24,75.2,54,45,3.83,scattered clouds,0,0
175,Chuy,UY,1/4/2020 21:21,-33.69,-53.46,74.25,64,13,12.35,few clouds,0,0
176,Thompson,CA,1/4/2020 21:19,55.74,-97.86,1.4,77,90,8.05,light snow,0,0
177,San Cristobal,HN,1/4/2020 21:22,14.68,-86.92,80.58,50,67,9.37,light rain,0.19,0
178,Bambous Virieux,MU,1/4/2020 21:22,-20.34,57.76,78.01,94,75,13.6,light intensity shower rain,0,0
179,Karpathos,GR,1/4/2020 21:22,35.51,27.21,58.3,68,0,21.72,clear sky,0,0
180,Bethel,US,1/4/2020 21:22,60.79,-161.76,-9.4,75,1,5.82,clear sky,0,0
181,Dingle,PH,1/4/2020 21:22,11,122.67,71.56,94,4,10.02,light rain,0.13,0
182,Norman Wells,CA,1/4/2020 21:22,65.28,-126.83,-18.4,68,90,5.82,light snow,0,0
183,Sept-Iles,CA,1/4/2020 21:20,50.2,-66.38,26.6,73,75,2.24,broken clouds,0,0
184,Sao Caetano De Odivelas,BR,1/4/2020 21:22,-0.75,-48.02,77.25,94,100,2.95,moderate rain,4,0
185,Vagamo,NO,1/4/2020 21:22,61.88,9.1,10.02,85,0,12.33,clear sky,0,0
186,Lunavada,IN,1/4/2020 21:22,23.13,73.61,58.5,55,0,9.22,clear sky,0,0
187,Peniche,PT,1/4/2020 21:22,39.36,-9.38,54,76,20,6.93,few clouds,0,0
188,Camacha,PT,1/4/2020 21:22,33.08,-16.33,64.4,72,75,6.93,broken clouds,0,0
189,Vaini,IN,1/4/2020 21:22,15.34,74.49,59.25,75,0,1.34,clear sky,0,0
190,Geraldton,CA,1/4/2020 21:22,49.72,-86.95,15.8,78,90,5.82,light snow,0,0
191,Victoria,BN,1/4/2020 21:20,5.28,115.24,80.6,83,75,2.24,broken clouds,0,0
192,Antofagasta,CL,1/4/2020 21:22,-23.65,-70.4,68,72,90,13.87,overcast clouds,0,0
193,Onalaska,US,1/4/2020 21:21,43.88,-91.23,32,89,75,10.29,broken clouds,0,0
194,Grojec,PL,1/4/2020 21:22,50.09,19.57,36,74,75,13.87,broken clouds,0,0
195,Cherskiy,RU,1/4/2020 21:21,68.75,161.3,-2.87,58,31,6.64,scattered clouds,0,0
196,Alta Floresta,BR,1/4/2020 21:22,-9.87,-56.08,86,66,40,3.36,scattered clouds,0,0
197,Tuktoyaktuk,CA,1/4/2020 21:22,69.44,-133.03,-23.8,67,40,10.29,scattered clouds,0,0
198,Half Moon Bay,US,1/4/2020 21:22,37.46,-122.43,62.01,76,20,13.87,few clouds,0,0
199,Haines Junction,CA,1/4/2020 21:22,60.75,-137.51,-8.25,97,100,3.31,overcast clouds,0,0
200,Champerico,MX,1/4/2020 21:22,16.38,-93.6,71.6,56,75,23.04,broken clouds,0,0
201,Coahuayana,MX,1/4/2020 21:22,18.62,-100.35,90.01,25,0,3.42,clear sky,0,0
202,Shelburne,CA,1/4/2020 21:21,44.08,-80.2,34,79,90,4.7,overcast clouds,0,0
203,Shingu,JP,1/4/2020 21:22,33.72,135.99,45.52,66,0,15.43,clear sky,0,0
204,Kiama,AU,1/4/2020 21:22,-34.67,150.86,70,77,90,9.17,overcast clouds,0,0
205,Maun,BW,1/4/2020 21:22,-19.99,23.42,71.78,83,100,5.48,light rain,0.38,0
206,Saint-Augustin,CA,1/4/2020 21:22,45.63,-73.98,32,86,90,9.17,light snow,0,0
207,Llangefni,GB,1/4/2020 21:22,53.26,-4.31,48.99,81,100,6.93,overcast clouds,0,0
208,Tezu,IN,1/4/2020 21:22,27.93,96.16,52.48,97,68,1.52,moderate rain,4.5,0
209,Alofi,NU,1/4/2020 21:22,-19.06,-169.92,84.2,70,0,8.05,clear sky,0,0
210,Aksu,KZ,1/4/2020 21:22,52.04,76.93,24.8,92,90,8.95,overcast clouds,0,0
211,Semey,KZ,1/4/2020 21:22,50.41,80.25,12.99,89,0,9.84,clear sky,0,0
212,Fare,PF,1/4/2020 21:22,-16.7,-151.02,81.61,76,100,11.63,overcast clouds,0,0
213,Coihaique,CL,1/4/2020 21:22,-45.58,-72.07,60.8,44,75,10.29,broken clouds,0,0
214,Bara,NG,1/4/2020 21:22,10.41,10.6,66.18,30,40,9.44,scattered clouds,0,0
215,Kidal,ML,1/4/2020 21:22,18.44,1.41,55.78,27,0,11.21,clear sky,0,0
216,Ligayan,PH,1/4/2020 21:22,4.65,119.47,82,76,100,14.79,overcast clouds,0,0
217,Hami,CN,1/4/2020 21:22,42.84,93.51,16.09,56,0,1.95,clear sky,0,0
218,Mar Del Plata,AR,1/4/2020 21:22,-46.43,-67.52,64.15,42,17,13.82,few clouds,0,0
219,Bonthe,SL,1/4/2020 21:22,7.53,-12.5,77.74,57,32,6.89,scattered clouds,0,0
220,Pringsewu,ID,1/4/2020 21:22,-5.36,104.98,72.46,97,100,3.47,moderate rain,8.31,0
221,Carnarvon,ZA,1/4/2020 21:22,-30.97,22.13,72.52,24,0,14.58,clear sky,0,0
222,Gizo,IL,1/4/2020 21:22,31.8,34.94,53.6,93,40,13.87,scattered clouds,0,0
223,Areosa,PT,1/4/2020 21:22,41.72,-8.86,51.01,75,0,4.7,clear sky,0,0
224,Shahr-E Babak,IR,1/4/2020 21:22,30.12,55.12,48.61,80,100,15.55,light rain,2.19,0
225,Mitu,IR,1/4/2020 21:22,36.2,46.09,21.83,95,80,3.13,light snow,0,0
226,Gladstone,AU,1/4/2020 21:22,-23.84,151.26,78.8,61,40,9.17,scattered clouds,0,0
227,Klaksvik,FO,1/4/2020 21:22,62.23,-6.59,46.4,100,100,16.11,light rain,0,0
228,Christchurch,NZ,1/4/2020 21:22,-43.53,172.64,59,71,100,12.75,light rain,0.13,0
229,Tuatapere,NZ,1/4/2020 21:22,-46.13,167.69,55,83,100,14,light rain,2.38,0
230,Sao Jose Da Coroa Grande,BR,1/4/2020 21:22,-8.9,-35.15,80.29,76,100,14.43,overcast clouds,0,0
231,Kruisfontein,ZA,1/4/2020 21:22,-34,24.73,68.18,96,49,3.51,scattered clouds,0,0
232,Valer,ES,1/4/2020 21:22,41.76,-6.18,36.05,88,0,4.32,clear sky,0,0
233,Umm Kaddadah,SD,1/4/2020 21:22,13.6,26.69,60.87,20,0,13.58,clear sky,0,0
234,Pacific Grove,US,1/4/2020 21:22,36.62,-121.92,63,67,20,6.93,few clouds,0,0
235,Maceio,BR,1/4/2020 21:22,-9.67,-35.74,80.6,74,90,13.87,overcast clouds,0,0
236,Port Elizabeth,US,1/4/2020 21:22,39.31,-74.98,57.99,87,90,3.36,overcast clouds,0,0
237,Mayumba,GA,1/4/2020 21:22,-3.44,10.65,80.76,84,100,7.38,light rain,0.5,0
238,Brookhaven,US,1/4/2020 21:22,40.78,-72.92,50,87,90,12.75,overcast clouds,0,0
239,Roswell,US,1/4/2020 21:20,33.39,-104.52,61,29,1,9.17,clear sky,0,0
240,Codrington,AU,1/4/2020 21:22,-28.95,153.24,78.8,82,0,5.82,clear sky,0,0
241,Manicore,BR,1/4/2020 21:22,-5.81,-61.3,86.63,66,100,3.33,light rain,0.44,0
242,Hilo,US,1/4/2020 21:22,19.71,-155.08,75.99,78,90,5.82,heavy intensity rain,0,0
243,Pedernales,EC,1/4/2020 21:22,0.07,-80.05,77.85,79,38,7.02,scattered clouds,0,0
244,Severobaykalsk,RU,1/4/2020 21:22,55.65,109.32,23.92,80,42,2.71,scattered clouds,0,0
245,Karwar,IN,1/4/2020 21:22,14.8,74.13,69.1,82,0,5.82,clear sky,0,0
246,Tomatlan,MX,1/4/2020 21:22,19.93,-105.25,86.68,21,49,5.01,scattered clouds,0,0
247,Annau,TM,1/4/2020 21:22,37.89,58.52,41,86,90,9.17,overcast clouds,0,0
248,Nizhniy Odes,RU,1/4/2020 21:22,63.64,54.86,26.67,91,96,9.08,overcast clouds,0,0
249,Mahebourg,MU,1/4/2020 21:22,-20.41,57.7,78.01,94,75,6.85,light intensity shower rain,0,0
250,Vyazma,RU,1/4/2020 21:22,55.21,34.3,31.21,83,78,10.27,light snow,0,0
251,Lafia,NG,1/4/2020 21:22,8.5,8.51,74.19,24,9,5.48,clear sky,0,0
252,Imbituba,BR,1/4/2020 21:22,-28.24,-48.67,75.2,83,75,8.05,broken clouds,0,0
253,Arraial Do Cabo,BR,1/4/2020 21:20,-22.97,-42.02,77,94,75,4.7,light rain,0,0
254,Sahuaripa,MX,1/4/2020 21:22,29.05,-109.23,71.17,19,0,2.64,clear sky,0,0
255,Anadyr,RU,1/4/2020 21:22,64.73,177.51,-31,66,0,4.47,clear sky,0,0
256,Inhambane,MZ,1/4/2020 21:22,-23.87,35.38,78.93,80,20,13.56,few clouds,0,0
257,Farah,AF,1/4/2020 21:22,32.37,62.11,48.74,84,100,4.38,light rain,0.44,0
258,Kendari,ID,1/4/2020 21:22,-3.99,122.52,75.11,96,98,4.7,overcast clouds,0,0
259,Rio Gallegos,AR,1/4/2020 21:18,-51.62,-69.22,62.6,33,75,13.87,broken clouds,0,0
260,Puerto Narino,CO,1/4/2020 21:22,-3.77,-70.38,82.4,83,75,8.05,broken clouds,0,0
261,Sao Filipe,CV,1/4/2020 21:22,14.9,-24.5,70.59,77,39,10.83,scattered clouds,0,0
262,Baiquan,CN,1/4/2020 21:22,47.61,126.08,-1.77,98,17,7.31,few clouds,0,0
263,Cochrane,CL,1/4/2020 21:22,-47.25,-72.57,44.73,67,100,6.58,light rain,0.13,0
264,Tabou,CI,1/4/2020 21:22,4.42,-7.36,73.47,62,0,3.13,clear sky,0,0
265,Sao Joao Da Barra,BR,1/4/2020 21:22,-21.64,-41.05,80.6,83,75,6.93,broken clouds,0,0
266,Waterloo,SL,1/4/2020 21:18,8.34,-13.07,80.6,69,0,6.93,haze,0,0
267,Belaya Gora,RU,1/4/2020 21:22,68.54,146.19,-19.44,99,100,1.54,overcast clouds,0,0
268,Manavalakurichi,IN,1/4/2020 21:22,8.13,77.3,78.8,94,75,3.36,mist,0,0
269,Camopi,GF,1/4/2020 21:22,3.17,-52.33,77.7,84,79,4.36,light rain,2.13,0
270,Jonesboro,US,1/4/2020 21:19,35.84,-90.7,48.99,61,20,9.17,few clouds,0,0
271,Guerrero Negro,MX,1/4/2020 21:22,27.97,-114.04,71.6,23,0,3,clear sky,0,0
272,Copiapo,CL,1/4/2020 21:22,-27.37,-70.33,69.8,60,40,14.99,scattered clouds,0,0
273,Kahului,US,1/4/2020 21:22,20.89,-156.47,77,88,90,17.22,heavy intensity rain,0,0
274,Valparaiso,US,1/4/2020 21:20,41.47,-87.06,33.8,75,90,10.29,light rain,0,0
275,Xunchang,CN,1/4/2020 21:22,28.45,104.71,47.05,74,74,0.78,broken clouds,0,0
276,Jalu,LY,1/4/2020 21:22,29.03,21.55,50.45,73,0,8.95,clear sky,0,0
277,Kieta,PG,1/4/2020 21:22,-6.22,155.63,82.63,72,7,3.83,clear sky,0,0
278,Synya,RU,1/4/2020 21:22,65.37,58.04,24.78,81,30,13.4,scattered clouds,0,0
279,Mahon,IE,1/4/2020 21:22,51.89,-8.4,46.99,93,75,12.75,light intensity drizzle,0,0
280,Huilong,CN,1/4/2020 21:22,31.15,106.5,47.28,84,100,3.42,overcast clouds,0,0
281,Khon Buri,TH,1/4/2020 21:22,14.52,102.25,73.99,47,5,3.6,clear sky,0,0
282,Port Hedland,AU,1/4/2020 21:22,-20.31,118.58,80.6,61,100,14.99,overcast clouds,0,0
283,Saint George,GR,1/4/2020 21:22,39.45,22.34,43,69,100,3.36,overcast clouds,0,0
284,Sao Felix Do Xingu,BR,1/4/2020 21:22,-6.64,-51.99,79.79,82,86,2.66,overcast clouds,0,0
285,Houma,CN,1/4/2020 21:22,35.63,111.36,32.38,99,100,2.71,snow,0,0
286,Kodiak,US,1/4/2020 21:22,39.95,-94.76,45,33,1,8.05,clear sky,0,0
287,Aguimes,ES,1/4/2020 21:22,27.91,-15.45,64.4,63,20,10.29,few clouds,0,0
288,Letka,BA,1/4/2020 21:22,43.74,17.27,35.6,69,100,4.7,overcast clouds,0,0
289,Naze,NG,1/4/2020 21:22,5.43,7.07,77,53,100,3.36,smoke,0,0
290,Muros,ES,1/4/2020 21:22,42.77,-9.06,51.01,100,0,6.93,clear sky,0,0
291,Miragoane,HT,1/4/2020 21:22,18.44,-73.09,80.98,65,0,3,clear sky,0,0
292,Pangnirtung,CA,1/4/2020 21:22,66.15,-65.72,1.4,77,75,12.75,light snow,0,0
293,Provideniya,RU,1/4/2020 21:22,64.42,-173.23,-12.82,78,60,10.63,broken clouds,0,0
294,Njombe,TZ,1/4/2020 21:22,-9.34,34.77,59.79,98,100,3.04,overcast clouds,0,0
295,Khani,GE,1/4/2020 21:22,41.96,42.96,35.6,70,56,4.7,broken clouds,0,0
296,Nainpur,IN,1/4/2020 21:22,22.43,80.11,54.05,72,0,8.01,clear sky,0,0
297,Teguldet,RU,1/4/2020 21:22,57.31,88.17,17.92,91,100,12.03,light snow,0,0
298,Teguise,ES,1/4/2020 21:22,29.06,-13.56,62.6,67,20,8.05,few clouds,0,0
299,Dolores,UY,1/4/2020 21:22,-33.53,-58.22,82.99,46,0,5.99,clear sky,0,0
300,Kuala Terengganu,MY,1/4/2020 21:22,5.33,103.14,80.6,83,40,6.93,scattered clouds,0,0
301,Namibe,AO,1/4/2020 21:22,-15.19,12.15,75.63,89,99,10.27,overcast clouds,0,0
302,Saldanha,PT,1/4/2020 21:22,41.42,-6.55,38.01,86,0,4.61,clear sky,0,0
303,Avondale,CA,1/4/2020 21:22,47.42,-53.19,34,98,90,12.75,light shower snow,0,0
304,Tessalit,ML,1/4/2020 21:22,20.2,1.01,55.83,26,44,10.63,scattered clouds,0,0
305,Soe,EE,1/4/2020 21:22,57.91,26.05,36,86,66,12.75,broken clouds,0,0
306,Sabya,SA,1/4/2020 21:22,17.15,42.62,82.4,69,75,3.36,broken clouds,0,0
307,Kantang,TH,1/4/2020 21:22,7.42,99.52,70.57,97,37,2.68,scattered clouds,0,0
308,General Roca,AR,1/4/2020 21:22,-39.03,-67.58,93.2,16,20,8.05,few clouds,0,0
309,Ambon,FR,1/4/2020 21:22,47.55,-2.56,39.99,100,13,3.36,few clouds,0,0
310,Rocha,UY,1/4/2020 21:21,-34.48,-54.34,76.86,52,0,14.92,clear sky,0,0
311,Karlstad,SE,1/4/2020 21:22,59.38,13.5,32,53,0,8.05,clear sky,0,0
312,Dubti,ET,1/4/2020 21:22,11.74,41.09,75.83,59,0,5.12,clear sky,0,0
313,Cambrils,ES,1/4/2020 21:22,41.07,1.07,53.01,100,6,2.24,clear sky,0,0
314,Kamenka,MD,1/4/2020 21:22,48.03,28.7,34,89,94,9.42,overcast clouds,0,0
315,Najran,SA,1/4/2020 21:22,17.54,44.22,75.2,25,75,4.68,broken clouds,0,0
316,Inverell,AU,1/4/2020 21:22,-29.78,151.11,79,42,0,1.99,clear sky,0,0
317,Am Timan,TD,1/4/2020 21:22,11.04,20.28,70.66,25,0,5.86,clear sky,0,0
318,Baley,RU,1/4/2020 21:22,51.58,116.65,2.8,85,54,3.09,broken clouds,0,0
319,Constitucion,MX,1/4/2020 21:22,23.99,-104.67,57.2,19,5,5.55,clear sky,0,0
320,Luwuk,ID,1/4/2020 21:22,-0.95,122.79,81.61,79,100,13.47,moderate rain,4.5,0
321,Springs,ZA,1/4/2020 21:22,-26.24,28.43,64.4,77,75,16.11,thunderstorm with light rain,0,0
322,Ilinskiy,RU,1/4/2020 21:22,55.62,38.12,32,79,75,6.71,broken clouds,0,0
323,Talnakh,RU,1/4/2020 21:22,69.49,88.39,-2.2,84,100,15.66,overcast clouds,0,0
324,Malmo,US,1/4/2020 21:22,46.33,-93.52,30.2,79,90,6.93,overcast clouds,0,0
325,Soyo,AO,1/4/2020 21:22,-6.13,12.37,77.9,89,100,4.43,light rain,0.25,0
326,Dunedin,NZ,1/4/2020 21:22,-45.87,170.5,52,87,100,13,light rain,0.38,0
327,Itoman,JP,1/4/2020 21:22,26.12,127.67,64.4,72,40,6.93,scattered clouds,0,0
328,Meulaboh,ID,1/4/2020 21:22,4.14,96.13,81.25,78,19,7.4,light rain,2.31,0
329,Vilcun,CL,1/4/2020 21:22,-38.65,-72.23,77,46,0,16.11,clear sky,0,0
330,Wewak,PG,1/4/2020 21:22,-3.55,143.63,75.49,94,100,7.74,moderate rain,11.13,0
331,Bergen,NO,1/4/2020 21:22,60.39,5.33,37,90,75,11.41,broken clouds,0,0
332,Cabra,ES,1/4/2020 21:22,37.47,-4.43,44.6,87,6,3.36,clear sky,0,0
333,La Ronge,CA,1/4/2020 21:21,55.1,-105.3,17.6,85,90,11.41,light snow,0,0
334,Bridlington,GB,1/4/2020 21:22,54.08,-0.19,46.4,87,91,6.93,overcast clouds,0,0
335,Sitka,US,1/4/2020 21:22,37.17,-99.65,59,37,0,5.99,clear sky,0,0
336,Yatou,CM,1/4/2020 21:22,3.63,9.81,82.4,83,20,2.55,few clouds,0,0
337,Glendive,US,1/4/2020 21:22,47.11,-104.71,48.2,45,1,12.75,clear sky,0,0
338,Grenfell,AU,1/4/2020 21:22,-33.9,148.16,79.02,36,0,9.98,clear sky,0,0
339,Zyryanka,RU,1/4/2020 21:22,65.73,150.89,4.3,72,15,17.83,few clouds,0,0
340,Ushirombo,TZ,1/4/2020 21:22,-3.47,31.9,65.62,92,39,1.32,light rain,1.5,0
341,Sioux Lookout,CA,1/4/2020 21:22,50.1,-91.92,23,73,90,4.7,overcast clouds,0,0
342,Katangli,RU,1/4/2020 21:22,51.71,143.23,1.72,86,100,12.15,light snow,0,0
343,Moose Factory,CA,1/4/2020 21:22,51.26,-80.61,6.8,84,90,2.24,light snow,0,0
344,Wanlaweyn,SO,1/4/2020 21:22,2.62,44.89,76.57,82,2,6.26,clear sky,0,0
345,Cockburn Town,TC,1/4/2020 21:22,21.46,-71.14,82.4,69,40,16.11,scattered clouds,0,0
346,Rincon,PA,1/4/2020 21:22,8.46,-82.28,87.8,66,20,10.29,few clouds,0,0
347,Selfoss,IS,1/4/2020 21:22,63.94,-21,39.2,84,75,13.87,shower rain,0,0
348,Kutum,SD,1/4/2020 21:22,14.2,24.66,54.39,27,0,5.01,clear sky,0,0
349,Setermoen,NO,1/4/2020 21:22,68.86,18.35,23,85,100,24.16,light snow,0,0
350,Chulumani,BO,1/4/2020 21:22,-16.41,-67.53,63.14,91,92,4.25,light rain,2.69,0
351,Souillac,FR,1/4/2020 21:22,45.6,-0.6,41,86,0,4.7,clear sky,0,0
352,Porto Novo,BR,1/4/2020 21:22,-23.68,-45.44,68,94,75,3.36,broken clouds,0,0
353,Zavyalovo,RU,1/4/2020 21:22,54.51,82.45,26.6,79,90,17.9,overcast clouds,0,0
354,Oranjemund,ZA,1/4/2020 21:22,-28.55,16.43,60.48,97,12,6.31,few clouds,0,0
355,Thunder Bay,CA,1/4/2020 21:22,48.41,-89.26,27,79,90,8.05,light snow,0,0
356,Novopskov,UA,1/4/2020 21:22,49.54,39.1,36.61,85,100,9.55,overcast clouds,0,0
357,Santa Vitoria Do Palmar,BR,1/4/2020 21:22,-33.52,-53.37,74.25,64,13,12.35,few clouds,0,0
358,Svetlogorsk,RU,1/4/2020 21:22,53.14,59.15,23,79,40,22.37,scattered clouds,0,0
359,Timmins,CA,1/4/2020 21:22,48.48,-81.33,17.6,78,90,4.7,light snow,0,0
360,Cerrito,CO,1/4/2020 21:22,6.84,-72.7,77,73,40,6.93,scattered clouds,0,0
361,Angoche,MZ,1/4/2020 21:22,-16.23,39.91,74.46,96,100,4.97,moderate rain,3.94,0
362,Lydenburg,ZA,1/4/2020 21:22,-25.1,30.46,73.99,89,1,1.99,light rain,0.31,0
363,Pucallpa,PE,1/4/2020 21:22,-8.38,-74.54,93.94,42,100,3.98,overcast clouds,0,0
364,Nhulunbuy,AU,1/4/2020 21:22,-12.18,136.78,80.6,78,100,3.36,overcast clouds,0,0
365,Paamiut,GL,1/4/2020 21:22,61.99,-49.67,26.4,72,100,12.12,overcast clouds,0,0
366,Cabo San Lucas,MX,1/4/2020 21:20,22.89,-109.91,79,60,5,5.82,clear sky,0,0
367,Hay River,CA,1/4/2020 21:22,60.82,-115.79,10.4,85,90,5.82,light snow,0,0
368,Atar,MR,1/4/2020 21:22,20.52,-13.05,59.94,20,0,12.28,clear sky,0,0
369,Russell,US,1/4/2020 21:22,38.9,-98.86,53.01,47,1,17.22,clear sky,0,0
370,Sawakin,SD,1/4/2020 21:22,19.1,37.33,72.79,77,100,19.75,light rain,0.31,0
371,Makaryev,RU,1/4/2020 21:22,57.88,43.81,28.56,96,100,8.39,light snow,0,0
372,Escanaba,US,1/4/2020 21:22,45.75,-87.06,28.99,74,90,6.93,light snow,0,0
373,Talcahuano,CL,1/4/2020 21:22,-36.72,-73.12,73.4,40,0,25.28,smoke,0,0
374,Orodara,BF,1/4/2020 21:22,10.98,-4.92,69.8,37,40,6.93,dust,0,0
375,Ulladulla,AU,1/4/2020 21:22,-35.36,150.48,66.99,77,90,9.17,overcast clouds,0,0
376,Grand-Lahou,CI,1/4/2020 21:22,5.24,-5,82.35,54,0,10.74,clear sky,0,0
377,Kloulklubed,PW,1/4/2020 21:22,7.04,134.26,78.8,83,75,8.05,broken clouds,0,0
378,Olavarria,AR,1/4/2020 21:22,-36.89,-60.32,84.99,43,12,1.99,few clouds,0,0
379,Huarmey,PE,1/4/2020 21:22,-10.07,-78.15,78.62,55,92,7.85,overcast clouds,0,0
380,Guarapari,BR,1/4/2020 21:22,-20.67,-40.5,79,94,75,11.41,broken clouds,0,0
381,Suntar,RU,1/4/2020 21:22,62.16,117.65,-4.02,99,97,1.74,light snow,0,0
382,Manaure,CO,1/4/2020 21:22,11.78,-72.45,93.2,38,7,11.41,clear sky,0,0
383,Port Blair,IN,1/4/2020 21:22,11.67,92.75,81.05,74,98,9.51,overcast clouds,0,0
384,Alytus,LT,1/4/2020 21:22,54.4,24.05,32,88,90,5.82,overcast clouds,0,0
385,Yeniseysk,RU,1/4/2020 21:22,58.45,92.17,12.92,91,100,8.12,overcast clouds,0,0
386,Samoded,RU,1/4/2020 21:22,63.61,40.52,24.84,94,61,5.3,broken clouds,0,0
387,Takoradi,GH,1/4/2020 21:22,4.89,-1.75,80.17,60,0,10.2,clear sky,0,0
388,Jacareacanga,BR,1/4/2020 21:22,-6.22,-57.76,82.53,68,64,2.44,broken clouds,0,0
389,Puerto Escondido,MX,1/4/2020 21:22,15.86,-97.07,86,74,40,5.82,scattered clouds,0,0
390,Yar-Sale,RU,1/4/2020 21:22,66.83,70.83,28.74,95,100,15.77,light snow,0,0
391,Empangeni,ZA,1/4/2020 21:22,-28.75,31.9,79.07,78,95,25.43,overcast clouds,0,0
392,Port Augusta,AU,1/4/2020 21:22,-32.49,137.76,55.99,75,100,1.01,overcast clouds,0,0
393,Beaverlodge,CA,1/4/2020 21:22,55.21,-119.43,21.2,73,75,21.92,broken clouds,0,0
394,Sundargarh,IN,1/4/2020 21:22,22.12,84.04,63.28,74,88,7.31,overcast clouds,0,0
395,Bandarbeyla,SO,1/4/2020 21:22,9.49,50.81,77.4,80,57,14.81,broken clouds,0,0
396,Maldonado,UY,1/4/2020 21:22,-34.91,-54.96,77,57,20,13.87,few clouds,0,0
397,Malinovoye Ozero,RU,1/4/2020 21:22,51.68,79.77,18.82,88,95,10.36,overcast clouds,0,0
398,Tagudin,PH,1/4/2020 21:22,16.93,120.44,67.95,77,60,2.57,broken clouds,0,0
399,Uaua,BR,1/4/2020 21:22,-9.84,-39.48,73.71,82,100,4.12,moderate rain,5.38,0
400,Ginda,IN,1/4/2020 21:22,30.69,78.49,31.91,82,0,4.16,clear sky,0,0
401,Canberra,AU,1/4/2020 21:18,-35.3,149.1,66.99,55,90,10.29,light rain,0,0
402,Nouadhibou,MR,1/4/2020 21:22,20.93,-17.03,64.4,55,0,9.17,sand,0,0
403,Mapastepec,MX,1/4/2020 21:22,15.44,-92.9,88.7,42,74,6.44,broken clouds,0,0
404,Manadhoo,MV,1/4/2020 21:22,5.77,73.38,81.93,80,58,8.97,broken clouds,0,0
405,Segou,SN,1/4/2020 21:22,12.41,-12.29,75.2,31,44,6.93,haze,0,0
406,Aketi,CD,1/4/2020 21:22,2.74,23.78,72.63,55,100,2.8,overcast clouds,0,0
407,Clyde River,CA,1/4/2020 21:22,70.47,-68.59,-25.6,67,75,13.87,mist,0,0
408,Nieves,MX,1/4/2020 21:22,24,-103.02,53.65,21,0,1.81,clear sky,0,0
409,Moranbah,AU,1/4/2020 21:22,-22,148.04,71.76,81,100,10.69,overcast clouds,0,0
410,Novopokrovka,UA,1/4/2020 21:23,49.84,36.56,32,93,75,6.71,light shower snow,0,0
411,Tekeli,KZ,1/4/2020 21:23,44.86,78.76,13.62,67,63,6.49,broken clouds,0,0
412,Sayyan,YE,1/4/2020 21:23,15.17,44.32,56.14,52,0,3,clear sky,0,0
413,Ouadda,CF,1/4/2020 21:23,8.07,22.4,67.51,31,3,4.5,clear sky,0,0
414,Carballo,ES,1/4/2020 21:23,43.21,-8.69,46,100,0,4.7,clear sky,0,0
415,Auburn,US,1/4/2020 21:22,44.1,-70.23,39,74,90,4.7,light rain,0,0
416,Cayenne,GF,1/4/2020 21:23,4.94,-52.33,82.4,74,75,6.93,broken clouds,0,0
417,Pathein,MM,1/4/2020 21:19,16.78,94.73,73.98,75,0,3.31,clear sky,0,0
418,Quijingue,BR,1/4/2020 21:23,-10.75,-39.21,84.27,49,100,5.5,overcast clouds,0,0
419,Puerto Varas,CL,1/4/2020 21:23,-41.32,-72.98,62.6,59,75,11.41,broken clouds,0,0
420,Puteyets,RU,1/4/2020 21:23,65.17,57.09,24.93,80,15,13.91,few clouds,0,0
421,Sabinas,MX,1/4/2020 21:23,27.85,-101.13,65.35,25,0,4.68,clear sky,0,0
422,Lazaro Cardenas,MX,1/4/2020 21:23,28.39,-105.62,57.2,30,5,9.17,clear sky,0,0
423,Rafai,CF,1/4/2020 21:23,4.95,23.92,73.89,33,100,3.8,overcast clouds,0,0
424,Makakilo City,US,1/4/2020 21:21,21.35,-158.09,79,83,75,9.17,light rain,0,0
425,Basco,US,1/4/2020 21:23,40.33,-91.2,37.99,74,75,12.75,broken clouds,0,0
426,Ponta Delgada,PT,1/4/2020 21:23,37.73,-25.67,62.6,88,20,9.17,few clouds,0,0
427,San Patricio,PY,1/4/2020 21:23,-26.98,-56.83,90.84,31,0,3.33,clear sky,0,0
428,Sabang,PH,1/4/2020 21:23,13.8,121.11,79,80,36,10,scattered clouds,0,0
429,Yaan,NG,1/4/2020 21:23,7.38,8.57,75.11,23,30,6.02,scattered clouds,0,0
430,Namie,JP,1/4/2020 21:23,37.52,140.86,32,71,20,1.12,few clouds,0,0
431,Zhezkazgan,KZ,1/4/2020 21:23,47.8,67.71,22.35,96,94,8.63,light snow,0,0
432,Guadalupe Victoria,MX,1/4/2020 21:23,21.68,-105.33,73.4,64,75,14.99,broken clouds,0,0
433,Kwakoa,TZ,1/4/2020 21:23,-3.77,37.72,73.67,72,46,6.93,scattered clouds,0,0
434,Lompoc,US,1/4/2020 21:23,34.64,-120.46,64.99,48,1,12.03,clear sky,0,0
435,Jaguarao,BR,1/4/2020 21:23,-32.57,-53.38,72,74,36,14.79,light rain,0.13,0
436,Oxford,US,1/4/2020 21:23,33.61,-85.83,54,40,75,21.92,broken clouds,0,0
437,Buin,CL,1/4/2020 21:23,-33.73,-70.74,89.6,30,0,9.17,clear sky,0,0
438,Myitkyina,MM,1/4/2020 21:23,25.38,97.4,56.37,98,86,3.02,light rain,1.19,0
439,Grindavik,IS,1/4/2020 21:18,63.84,-22.43,39.2,86,75,26.4,light shower snow,0,0
440,Sarana,RU,1/4/2020 21:23,56.48,57.73,26.82,91,100,12.48,light snow,0,0
441,Hervey Bay,AU,1/4/2020 21:23,-25.3,152.85,75.2,69,7,8.05,clear sky,0,0
442,Chillicothe,US,1/4/2020 21:23,39.33,-82.98,37.4,86,90,8.05,light rain,0,0
443,Teknaf,BD,1/4/2020 21:23,20.86,92.31,63.99,98,56,2.3,light rain,0.25,0
444,Hailey,US,1/4/2020 21:23,43.52,-114.32,37.4,69,40,11.41,scattered clouds,0,0
445,Vila Velha,BR,1/4/2020 21:23,-3.71,-38.6,86,69,20,8.05,few clouds,0,0
446,Oksfjord,NO,1/4/2020 21:23,70.24,22.35,26.6,92,75,12.75,light shower snow,0,0
447,Mana,NG,1/4/2020 21:23,13.03,5.27,65.17,23,0,11.9,clear sky,0,0
448,Vallenar,CL,1/4/2020 21:23,-28.58,-70.76,70.9,54,0,10.54,clear sky,0,0
449,Nzega,TZ,1/4/2020 21:23,-4.22,33.19,68.74,76,100,1.9,overcast clouds,0,0
450,Medea,DZ,1/4/2020 21:23,36.27,2.77,48.2,87,40,1.12,scattered clouds,0,0
451,Prince Rupert,CA,1/4/2020 21:21,54.32,-130.32,37.4,86,75,13.87,light rain,0,0
452,Arlit,NE,1/4/2020 21:20,18.74,7.39,59.49,24,0,18.97,clear sky,0,0
453,Cap Malheureux,MU,1/4/2020 21:23,-19.98,57.61,78.01,94,75,12.03,light intensity shower rain,0,0
454,Freeport,BS,1/4/2020 21:21,26.54,-78.7,80.6,83,75,17.22,broken clouds,0,0
455,Kenora,CA,1/4/2020 21:23,49.76,-94.48,26.6,85,90,5.82,overcast clouds,0,0
456,Salamiyah,SY,1/4/2020 21:23,35.01,37.05,45.7,88,36,10.29,scattered clouds,0,0
457,Tahlequah,US,1/4/2020 21:23,35.92,-94.97,50,27,1,4.7,clear sky,0,0
458,Arroyo,BO,1/4/2020 21:23,-11.08,-66.08,82.4,78,75,5.14,broken clouds,0,0
459,Hofn,IS,1/4/2020 21:23,64.25,-15.21,45.07,74,67,37.24,broken clouds,0,0
460,Santa Lucia,IT,1/4/2020 21:23,41.98,12.66,48.99,87,40,2.24,scattered clouds,0,0
461,Moscow,RU,1/4/2020 21:20,55.75,37.62,32,76,75,8.95,broken clouds,0,0
462,Ongandjera,NA,1/4/2020 21:21,-17.88,15.07,69.71,78,100,17.85,moderate rain,5.44,0
463,Chara,GR,1/4/2020 21:23,39.42,22.43,43,69,100,3.36,overcast clouds,0,0
464,Dubbo,AU,1/4/2020 21:23,-32.25,148.6,93.2,21,0,11.41,clear sky,0,0
465,Tagusao,PH,1/4/2020 21:23,9.19,117.81,73.83,90,81,6.26,broken clouds,0,0
466,Bodaybo,RU,1/4/2020 21:23,57.85,114.2,11.8,95,95,3.42,light snow,0,0
467,Araure,VE,1/4/2020 21:23,9.59,-69.23,87.8,40,40,4.7,scattered clouds,0,0
468,Hambantota,LK,1/4/2020 21:23,6.12,81.12,79.03,84,7,16.51,clear sky,0,0
469,Beipiao,CN,1/4/2020 21:23,41.8,120.76,14.04,76,0,2.26,clear sky,0,0
470,Luderitz,NA,1/4/2020 21:19,-26.65,15.16,62.53,87,0,25.5,clear sky,0,0
471,Hamilton,CA,1/4/2020 21:20,43.26,-79.87,37.99,80,90,5.82,light snow,0,0
472,Mount Isa,AU,1/4/2020 21:23,-20.73,139.49,80.6,65,98,5.82,overcast clouds,0,0
473,Polunochnoye,RU,1/4/2020 21:23,60.87,60.43,29.68,88,100,7.16,overcast clouds,0,0
474,Fernley,US,1/4/2020 21:23,39.61,-119.25,57.2,20,40,10.29,scattered clouds,0,0
475,Ayagoz,KZ,1/4/2020 21:23,47.96,80.43,10.09,98,95,2.1,overcast clouds,0,0
476,Ostrovnoy,RU,1/4/2020 21:23,68.05,39.51,24.31,86,100,25.72,light snow,0,0
477,Livingstonia,MW,1/4/2020 21:21,-10.61,34.11,60.58,89,100,2.55,overcast clouds,0,0
478,Orocue,CO,1/4/2020 21:23,4.79,-71.34,90.82,38,58,12.3,broken clouds,0,0
479,Ushumun,RU,1/4/2020 21:23,52.78,126.54,-14.69,96,10,1.92,clear sky,0,0
480,Puerto Colombia,CO,1/4/2020 21:23,10.99,-74.96,86,66,41,12.75,scattered clouds,0,0
481,Kudahuvadhoo,MV,1/4/2020 21:23,2.67,72.89,82.18,78,1,8.08,clear sky,0,0
482,Bubaque,GW,1/4/2020 21:23,11.28,-15.83,78.42,62,0,9.93,clear sky,0,0
483,Khor,RU,1/4/2020 21:23,47.88,134.96,-10.12,99,79,5.82,broken clouds,0,0
484,Gabu,CN,1/4/2020 21:23,34.78,103,21.81,90,100,2.57,light snow,0,0
485,Taiyuan,CN,1/4/2020 21:23,37.86,112.56,33.8,47,100,13.42,overcast clouds,0,0
486,Ejea De Los Caballeros,ES,1/4/2020 21:23,42.13,-1.14,46.4,70,0,16.11,clear sky,0,0
487,Kupang,ID,1/4/2020 21:23,-10.16,123.6,80.6,83,75,11.41,broken clouds,0,0
488,Sulangan,PH,1/4/2020 21:23,11.14,123.72,80.06,77,21,13.53,few clouds,0,0
489,Hun,BE,1/4/2020 21:23,50.34,4.87,43,86,75,6.93,broken clouds,0,0
490,Lagunas,PE,1/4/2020 21:23,-5.23,-75.68,90.95,49,39,4.97,scattered clouds,0,0
491,Pogaceaua,RO,1/4/2020 21:23,46.68,24.3,30.2,92,75,1.12,mist,0,0
492,Aswan,EG,1/4/2020 21:23,24.09,32.9,50,46,0,8.05,clear sky,0,0
493,Havoysund,NO,1/4/2020 21:23,71,24.66,24.8,85,100,35.57,light snow,0,0
494,Wakkanai,JP,1/4/2020 21:23,45.41,141.67,26.51,58,100,17.49,overcast clouds,0,0
495,Torbay,CA,1/4/2020 21:23,47.66,-52.73,34,98,90,12.75,light rain,0,0
496,Diego De Almagro,CL,1/4/2020 21:23,-26.39,-70.05,78.64,21,0,12.88,clear sky,0,0
497,Husavik,CA,1/4/2020 21:23,50.56,-96.99,26.01,93,100,7,overcast clouds,0,0
498,Novyy Urengoy,RU,1/4/2020 21:23,66.08,76.63,17.92,94,100,18.23,light snow,0,0
499,Lewistown,US,1/4/2020 21:23,40.39,-90.15,33.8,80,90,13.87,overcast clouds,0,0
500,Lara,PE,1/4/2020 21:18,-16.45,-71.53,59,77,75,8.05,broken clouds,0,0
501,Tautira,PF,1/4/2020 21:22,-17.73,-149.15,86,70,40,11.41,scattered clouds,0,0
502,Grafton,AU,1/4/2020 21:23,-29.69,152.93,73.99,88,0,4.7,clear sky,0,0
503,Ostersund,SE,1/4/2020 21:23,63.18,14.64,28.99,79,18,16.11,few clouds,0,0
504,Ziro,IN,1/4/2020 21:23,27.54,93.82,41.52,95,37,1.16,light rain,0.13,0
505,Riom,FR,1/4/2020 21:23,45.89,3.11,36,86,10,2.24,clear sky,0,0
506,Telafas,PH,1/4/2020 21:23,6.64,124.97,65.26,92,0,3.6,clear sky,0,0
507,Ust-Koksa,RU,1/4/2020 21:23,50.27,85.62,8.78,82,94,5.41,overcast clouds,0,0
508,Yeppoon,AU,1/4/2020 21:23,-23.13,150.74,75.2,64,90,8.05,overcast clouds,0,0
509,Tarancon,ES,1/4/2020 21:23,40.01,-3.01,44.01,86,5,8.05,clear sky,0,0
510,Port Lincoln,AU,1/4/2020 21:23,-34.72,135.86,58.98,78,100,17.2,light rain,0.63,0
511,Borogontsy,RU,1/4/2020 21:23,62.67,131.17,-17.9,97,100,4.83,overcast clouds,0,0
512,Lemon Tree Passage,AU,1/4/2020 21:23,-32.73,152.04,73.4,60,90,17.22,overcast clouds,0,0
513,Vardo,US,1/4/2020 21:23,39.62,-77.74,52,61,90,11.41,light rain,0,0
514,Fort Dodge,US,1/4/2020 21:23,42.5,-94.17,32,86,75,12.75,broken clouds,0,0
515,Mezen,RU,1/4/2020 21:23,65.85,44.24,26.67,89,99,14.09,light snow,0,0
516,Aksum,ET,1/4/2020 21:23,14.12,38.72,63,64,3,2.24,clear sky,0,0
517,Broadford,AU,1/4/2020 21:23,-37.2,145.05,59,82,75,11.41,light rain,0,0
518,Conde,BR,1/4/2020 21:23,-11.81,-37.61,80.78,80,100,17.56,overcast clouds,0,0
519,Sisimiut,GL,1/4/2020 21:23,66.94,-53.67,7.54,88,100,4.9,overcast clouds,0,0
520,Tual,ID,1/4/2020 21:23,-5.67,132.75,82.65,79,100,18.99,light rain,2.44,0
521,Prachuap Khiri Khan,TH,1/4/2020 21:23,11.81,99.79,76.42,77,25,5.17,scattered clouds,0,0
522,Kouroussa,GN,1/4/2020 21:23,10.65,-9.88,68.52,13,57,3.31,broken clouds,0,0
523,Port Hawkesbury,CA,1/4/2020 21:23,45.62,-61.36,36,92,90,4.7,overcast clouds,0,0
524,Northam,AU,1/4/2020 21:23,-31.65,116.67,66.2,34,0,10.29,clear sky,0,0
525,Dongsheng,CN,1/4/2020 21:23,29.72,112.52,45.39,82,100,3.74,overcast clouds,0,0
526,Komsomolskiy,RU,1/4/2020 21:23,67.55,63.78,25.43,90,78,17.94,broken clouds,0,0
527,Santa Rosa,AR,1/4/2020 21:23,-36.62,-64.29,95.04,31,61,3,broken clouds,0,0
528,Yenagoa,NG,1/4/2020 21:23,4.92,6.26,76.93,57,100,4.25,overcast clouds,0,0
529,Mount Gambier,AU,1/4/2020 21:20,-37.83,140.78,57.2,62,100,8.05,overcast clouds,0,0
530,Maunabo,PR,1/4/2020 21:23,18.01,-65.9,82.4,69,40,9.17,scattered clouds,0,0
531,Banda Aceh,ID,1/4/2020 21:23,5.56,95.32,71.83,87,0,5.14,clear sky,0,0
532,Bilma,NE,1/4/2020 21:23,18.69,12.92,49.51,34,0,3.24,clear sky,0,0
533,Amahai,ID,1/4/2020 21:23,-3.31,129,81.5,79,100,7.72,overcast clouds,0,0
534,Borba,BR,1/4/2020 21:23,-4.39,-59.59,85.77,67,72,2.26,broken clouds,0,0
535,Enshi,CN,1/4/2020 21:23,30.29,109.48,40.03,97,100,2.06,light rain,0.75,0
536,Gat,SN,1/4/2020 21:23,14.69,-16.54,77,33,30,2.24,scattered clouds,0,0
537,Fuerte Olimpo,BR,1/4/2020 21:23,-21.04,-57.87,98.19,21,0,8.59,clear sky,0,0
538,Marawi,PH,1/4/2020 21:23,8,124.29,71.01,90,8,7,clear sky,0,0
539,Beni,CD,1/4/2020 21:23,0.49,29.47,66.2,93,88,2.1,light rain,1.19,0
540,Salina,US,1/4/2020 21:22,38.84,-97.61,48.99,39,1,13.87,clear sky,0,0
541,Eskisehir,TR,1/4/2020 21:23,39.78,30.52,32,81,75,8.05,broken clouds,0,0
542,Fairlie,US,1/4/2020 21:23,33.31,-95.96,60.8,28,1,5.82,clear sky,0,0
543,Baykalovo,RU,1/4/2020 21:23,64.58,40.26,26.6,92,40,4.47,scattered clouds,0,0
544,Novita,CO,1/4/2020 21:23,4.96,-76.61,77.05,90,28,2.8,moderate rain,3.38,0
545,Boguchany,RU,1/4/2020 21:23,58.38,97.46,12.54,93,76,8.41,broken clouds,0,0
546,Carbonia,IT,1/4/2020 21:23,39.17,8.53,53.6,87,20,5.82,few clouds,0,0
547,Kasempa,ZM,1/4/2020 21:23,-13.46,25.83,62.69,98,100,4.79,overcast clouds,0,0
548,Nuevo Progreso,US,1/4/2020 21:23,26.05,-97.95,75,21,40,3.36,scattered clouds,0,0
549,Seoul,KR,1/4/2020 21:20,37.57,126.98,23,79,1,1.07,clear sky,0,0
550,Goderich,CA,1/4/2020 21:23,43.74,-81.71,33.01,78,94,1.99,light snow,0,0
551,Batagay,RU,1/4/2020 21:23,67.65,134.64,-27.63,94,0,1.1,clear sky,0,0
552,Sun Valley,US,1/4/2020 21:22,39.6,-119.78,57.2,42,1,11.41,clear sky,0,0
553,Chapais,CA,1/4/2020 21:23,49.78,-74.86,10.4,78,90,5.82,light snow,0,0
554,Touros,BR,1/4/2020 21:23,-5.2,-35.46,82.4,69,20,13.87,few clouds,0,0
555,Nisporeni,MD,1/4/2020 21:23,47.07,28.18,39.2,80,64,6.93,broken clouds,0,0
556,San Jorge,PH,1/4/2020 21:23,11.98,124.82,70.93,95,35,4.05,light rain,0.56,0
557,Vasyshcheve,UA,1/4/2020 21:23,49.83,36.33,32,93,75,6.71,light shower snow,0,0
558,Nome,US,1/4/2020 21:23,30.04,-94.42,68,34,1,10.29,clear sky,0,0
559,Ilhabela,BR,1/4/2020 21:23,-23.78,-45.36,76.84,85,100,5.14,light rain,2.13,0
560,Bodden Town,KY,1/4/2020 21:23,19.28,-81.25,86,79,75,3.36,shower rain,0,0
